{"city":"nagano","updated":"2026-06-26","stores":[{"lat":36.65356,"lng":138.22295,"chain":"other","name":"グリーンファーム","addr":"","hours":""},{"lat":36.6453,"lng":138.1865,"chain":"seiyu","name":"西友","addr":"","hours":""},{"lat":36.6477,"lng":138.20613,"chain":"seiyu","name":"西友","addr":"","hours":""},{"lat":36.67614,"lng":138.20911,"chain":"seiyu","name":"西友","addr":"","hours":""},{"lat":36.64922,"lng":138.18686,"chain":"other","name":"とまと食品館","addr":"","hours":"Mo-Su 10:00-22:00"},{"lat":36.66973,"lng":138.20704,"chain":"aeon","name":"イオンザ．ビッグ","addr":"長野県長野市94324","hours":""},{"lat":36.65338,"lng":138.19154,"chain":"other","name":"綿半","addr":"長野県長野市2201","hours":""},{"lat":36.63245,"lng":138.18824,"chain":"other","name":"デリシア","addr":"","hours":""},{"lat":36.64105,"lng":138.18449,"chain":"other","name":"生鮮市場JC","addr":"","hours":"Mo-Su 09:30-19:30"},{"lat":36.64256,"lng":138.19646,"chain":"other","name":"デリシア","addr":"","hours":""},{"lat":36.64247,"lng":138.21586,"chain":"donki","name":"MEGAドン・キホーテ","addr":"","hours":"24/7"},{"lat":36.67123,"lng":138.19968,"chain":"other","name":"デリシア","addr":"","hours":""},{"lat":36.63875,"lng":138.2035,"chain":"other","name":"ラ・ムー","addr":"","hours":"24/7"},{"lat":36.67849,"lng":138.21981,"chain":"other","name":"デリシア","addr":"","hours":""},{"lat":36.65831,"lng":138.20215,"chain":"other","name":"デリシア","addr":"","hours":""},{"lat":36.63154,"lng":138.19605,"chain":"other","name":"原信若里店","addr":"長野県長野市3丁目221","hours":"Mo-Su 09:00-22:00"},{"lat":36.65321,"lng":138.21432,"chain":"other","name":"ツルヤ","addr":"","hours":""}]}